[
    {
        "location_name": "Tribal Fitness",
        "location_address": "3/F, Al Aqmar House, 30 Hollywood Rd, Central",
        "location_lat": 22.282217253523314,
        "location_lng": 114.15362269277986,
        "location_phone_number": 54427645,
        "location_website": "http://www.tribalfitnesshk.com/",
        "location_rating": 5.0,
        "location_image": 
    },
    {
        "location_name": "EFX24 大角咀",
        "location_address": "1/F, Living 23, 晴坊, 23 Pine St, Tai Kok Tsui",
        "location_lat": 22.320938328407582,
        "location_lng": 114.16383691187012,
        "location_phone_number": 65971058,
        "location_website": "https://efx24.fit/",
        "location_rating": 5.0,
        "location_image": 
    },
    {
        "location_name": "Feral State Training Hub",
        "location_address": "101-102 Hoi Yuen Rd, Kwun Tong",
        "location_lat": 22.310192858889536,
        "location_lng": 114.22379216697772,
        "location_phone_number": 67624368,
        "location_website": "https://www.instagram.com/feralstate.hk",
        "location_rating": 5.0,
        "location_image": 
    },
    {
        "location_name": "EAST High Performance Centre",
        "location_address": "L8, Unit 7, MegaBox, 38 Wang Chiu Rd, Kowloon Bay",
        "location_lat": 22.31972865533798,
        "location_lng": 114.20841769468232,
        "location_phone_number": 52825150,
        "location_website": "https://www.easthighperformancecentre.com/",
        "location_rating": 3.7,
        "location_image": 
    },
    {
        "location_name": "House of Fitness",
        "location_address": "18 Possession St, Sheung Wan",
        "location_lat": 22.286094765190697,
        "location_lng": 114.14807255235205,
        "location_phone_number": 60452325,
        "location_website": "https://www.hofhk.com/",
        "location_rating": 4.7,
        "location_image": 
    },
    {
        "location_name": "APA Causeway Bay",
        "location_address": "3/F, 30 Hollywood Road, Central",
        "location_lat": 22.279180798308797,
        "location_lng": 114.18210371371609,
        "location_phone_number": 64668200,
        "location_website": "http://apacademy.hk/",
        "location_rating": "",
        "location_image": 
    },
    {
        "location_name": "BFT Causeway Bay",
        "location_address": "Unit C&D, 21/F Soundwill Plaza II - Mid-town, 1 Tang Lung St, Causeway Bay",
        "location_lat": 22.27929493699246,
        "location_lng": 114.1819862554113,
        "location_phone_number": 67064203,
        "location_website": "https://www.bodyfittraining.au/club/causeway-bay",
        "location_rating": 4.7,
        "location_image": 
    },
]